,City,Cloudiness,Country,Date,Humidity,Temp,Lat,Lng,Wind Speed
0,victoria,67,HK,1607381085,69,62.64,22.29,114.16,12.19
1,mataura,1,NZ,1607381085,60,66.99,-46.19,168.86,8.01
2,tyukhtet,100,RU,1607381085,93,9.79,56.54,89.3,15.82
3,clyde river,90,CA,1607381085,84,8.6,70.47,-68.59,3.36
4,golden gate,1,US,1607381085,82,65.98,26.19,-81.7,12.75
5,dunedin,10,NZ,1607381085,61,64.0,-45.87,170.5,11.01
6,port elizabeth,75,ZA,1607381085,94,68.0,-33.92,25.57,21.92
7,qaanaaq,82,GL,1607381086,85,-6.05,77.48,-69.36,3.53
8,alyangula,75,AU,1607381086,84,86.0,-13.85,136.42,11.41
9,muroto,20,JP,1607381086,66,48.2,33.28,134.15,9.17
10,komsomolskiy,40,UZ,1607381086,90,32.0,40.43,71.72,2.08
11,broken hill,0,AU,1607381086,58,55.4,-31.95,141.43,18.34
12,ojinaga,1,MX,1607381086,22,64.67,29.57,-104.42,3.36
13,paidha,32,UG,1607381086,87,62.8,2.42,30.99,4.97
14,tasiilaq,4,GL,1607381086,67,17.6,65.61,-37.64,4.38
15,kloulklubed,90,PW,1607381086,94,77.0,7.04,134.26,6.93
16,severo-kurilsk,93,RU,1607381086,90,26.26,50.68,156.12,10.0
17,albany,73,US,1607381077,59,29.48,42.6,-73.97,5.99
18,lebu,73,CL,1607380829,81,56.89,-37.62,-73.65,7.34
19,atuona,1,PF,1607381087,72,79.03,-9.8,-139.03,17.2
20,punta arenas,75,CL,1607381087,66,55.4,-53.15,-70.92,13.87
21,alta floresta,98,BR,1607381087,88,73.09,-9.88,-56.09,3.44
22,carballo,98,ES,1607381087,95,45.99,43.21,-8.69,5.99
23,fort morgan,1,US,1607381087,17,55.4,40.25,-103.8,5.82
24,aanekoski,20,FI,1607381087,86,28.18,62.69,25.82,8.05
25,nouadhibou,0,MR,1607381087,68,66.2,20.93,-17.03,16.11
26,portland,75,US,1607380978,61,49.32,45.52,-122.68,11.41
27,airai,99,TL,1607381087,91,67.41,-8.93,125.41,2.21
28,ushuaia,75,AR,1607381088,76,48.2,-54.8,-68.3,17.22
29,rawson,100,AR,1607381088,22,84.49,-43.3,-65.1,26.78
30,bluff,23,NZ,1607381088,60,66.99,-46.6,168.33,8.01
31,bilibino,100,RU,1607381088,89,5.0,68.05,166.44,3.24
32,ribeira grande,89,PT,1607381088,67,59.95,38.52,-28.7,9.82
33,udachnyy,0,RU,1607381088,75,-18.4,66.42,112.4,2.24
34,sitka,90,US,1607381088,76,48.2,57.05,-135.33,20.8
35,upata,100,VE,1607381088,93,71.82,8.01,-62.4,4.14
36,busselton,3,AU,1607380968,68,60.44,-33.65,115.33,1.99
37,ahipara,57,NZ,1607381088,72,72.75,-35.17,173.17,14.0
38,thompson,90,CA,1607381089,92,24.8,55.74,-97.86,6.93
39,vanavara,100,RU,1607381089,94,7.34,60.34,102.28,8.28
40,russkiy kameshkir,0,RU,1607381089,89,16.47,52.86,46.09,5.82
41,mar del plata,0,AR,1607380874,60,67.84,-38.0,-57.56,13.87
42,okhotsk,100,RU,1607381089,90,-5.04,59.38,143.3,15.52
43,gornyye klyuchi,0,RU,1607381089,92,5.7,45.25,133.5,4.09
44,fairbanks,75,US,1607380826,84,-0.15,64.84,-147.72,3.02
45,dikson,98,RU,1607381089,93,-4.23,73.51,80.55,6.06
46,hilo,75,US,1607381089,58,78.13,19.73,-155.09,8.05
47,evensk,58,RU,1607381090,93,8.4,61.95,159.23,8.55
48,esperance,0,AU,1607381090,76,55.4,-33.87,121.9,10.29
49,uruzgan,92,AF,1607381090,86,44.29,32.83,66.0,0.36
50,husavik,0,IS,1607381090,73,24.8,66.04,-17.34,5.82
51,mabaruma,100,GY,1607381090,89,75.52,8.2,-59.78,4.14
52,tahoua,99,NE,1607381090,16,80.73,14.89,5.27,8.52
53,hobart,75,AU,1607380828,46,55.62,-42.88,147.33,13.87
54,muros,54,ES,1607381090,83,48.79,42.78,-9.06,23.91
55,piney green,90,US,1607381091,87,45.72,34.72,-77.32,12.75
56,coahuayana,75,MX,1607381091,57,80.6,18.73,-103.68,9.17
57,cape town,0,ZA,1607381040,82,65.12,-33.93,18.42,10.29
58,sosnovo-ozerskoye,99,RU,1607381091,93,0.63,52.52,111.54,10.29
59,new norfolk,58,AU,1607381091,61,53.49,-42.78,147.06,4.0
60,marzuq,40,YE,1607381091,64,61.43,14.4,46.47,4.12
61,togul,100,RU,1607381091,93,8.87,53.47,85.91,12.21
62,virginia beach,90,US,1607380950,86,38.68,36.85,-75.98,11.41
63,vanimo,98,PG,1607381091,79,81.64,-2.67,141.3,4.92
64,kapaa,1,US,1607381091,69,80.19,22.08,-159.32,13.87
65,saint-philippe,0,RE,1607381092,78,68.67,-21.36,55.77,4.7
66,rikitea,5,PF,1607381092,81,75.88,-23.12,-134.97,14.52
67,champerico,40,GT,1607381092,66,77.56,14.3,-91.92,9.17
68,vaini,75,TO,1607381092,78,82.4,-21.2,-175.2,13.87
69,northam,61,GB,1607381092,81,37.76,51.03,-4.22,5.01
70,okha,100,RU,1607381092,94,10.65,53.57,142.95,10.47
71,nhulunbuy,96,AU,1607381092,83,82.4,-12.23,136.77,4.7
72,southbridge,39,US,1607381092,64,28.56,42.08,-72.03,2.71
73,bereda,75,ES,1607381092,99,41.67,43.27,-7.54,4.0
74,vieste,20,IT,1607381092,81,47.32,41.88,16.18,5.82
75,half moon bay,1,US,1607381053,18,71.74,37.46,-122.43,12.75
76,tahta,0,EG,1607381092,48,65.26,26.77,31.5,6.93
77,hermanus,80,ZA,1607381093,94,62.01,-34.42,19.23,5.32
78,karoi,100,ZW,1607381093,94,64.98,-16.81,29.69,4.97
79,carroll,33,US,1607381093,63,33.01,39.55,-77.02,1.01
80,bathsheba,20,BB,1607381093,73,77.0,13.22,-59.52,10.29
81,carson city,1,US,1607381093,29,49.15,39.16,-119.77,11.41
82,saint george,1,US,1607381041,13,62.67,37.1,-113.58,3.36
83,abha,0,SA,1607381093,58,54.45,18.22,42.51,2.3
84,altay,23,CN,1607381093,76,9.05,47.87,88.12,2.91
85,puerto ayora,0,EC,1607381094,61,77.77,-0.74,-90.35,8.05
86,jamestown,75,US,1607380813,73,28.33,42.1,-79.24,6.93
87,barrow,90,US,1607381037,77,-2.2,71.29,-156.79,8.3
88,temerin,0,RS,1607381094,100,41.29,45.41,19.89,13.87
89,kodiak,90,US,1607380884,81,42.8,57.79,-152.41,9.17
90,henties bay,2,NA,1607381094,89,62.01,-22.12,14.28,3.38
91,bardiyah,0,LY,1607381094,68,60.4,31.76,25.09,8.77
92,pevek,16,RU,1607381094,90,7.21,69.7,170.31,2.53
93,yellowknife,20,CA,1607380993,92,14.49,62.46,-114.35,4.7
94,norman wells,40,CA,1607381094,84,-0.4,65.28,-126.83,2.24
95,bambous virieux,20,MU,1607381094,88,75.11,-20.34,57.76,5.17
96,paamiut,0,GL,1607381095,79,27.21,61.99,-49.67,7.9
97,lerik,90,AZ,1607381095,86,39.2,38.77,48.41,5.82
98,caruray,40,PH,1607381095,94,77.0,10.31,119.01,6.93
99,puerto carreno,96,CO,1607380979,84,79.72,6.19,-67.49,1.97
100,alofi,75,NU,1607380918,74,84.2,-19.06,-169.92,17.22
101,senno,23,RU,1607381095,85,24.37,59.53,33.92,7.31
102,carutapera,100,BR,1607380811,85,78.55,-1.2,-46.02,6.64
103,san quintin,98,MX,1607381095,52,66.07,30.48,-115.95,7.74
104,bulgan,5,MN,1607381095,77,1.42,48.81,103.53,3.58
105,thibodaux,1,US,1607381095,44,59.85,29.8,-90.82,6.93
106,castro,59,BR,1607381095,97,62.2,-24.79,-50.01,5.14
107,klaksvik,97,FO,1607381095,80,39.2,62.23,-6.59,11.41
108,westport,1,US,1607380988,47,33.4,41.14,-73.36,5.82
109,morondava,83,MG,1607381096,84,79.38,-20.28,44.28,4.65
110,hithadhoo,100,MV,1607381096,78,82.13,-0.6,73.08,15.61
111,ulaanbaatar,0,MN,1607381096,67,-27.4,47.91,106.88,2.24
112,enshi,100,CN,1607381096,83,43.45,30.3,109.48,2.37
113,flinders,7,AU,1607381096,46,68.0,-34.58,150.86,7.0
114,coihaique,0,CL,1607381096,27,75.2,-45.58,-72.07,8.05
115,souillac,20,MU,1607381096,88,75.2,-20.52,57.52,5.93
116,fort nelson,75,CA,1607381096,85,24.8,58.81,-122.7,3.36
117,port hardy,90,CA,1607381097,100,47.1,50.7,-127.42,16.11
118,maloy,100,NO,1607381097,81,43.79,61.94,5.11,9.17
119,butaritari,61,KI,1607381097,75,81.97,3.07,172.79,10.63
120,lompoc,1,US,1607381097,13,76.1,34.64,-120.46,4.7
121,westerland,90,DE,1607381097,93,40.71,54.91,8.3,17.22
122,champasak,59,LA,1607381097,91,63.54,14.75,106.0,1.66
123,berlevag,75,NO,1607381097,79,27.05,70.86,29.09,16.11
124,pacific grove,1,US,1607381034,20,72.3,36.62,-121.92,9.17
125,nuevo progreso,24,MX,1607381097,32,69.69,23.17,-97.95,5.99
126,kununurra,40,AU,1607381098,83,80.6,-15.77,128.73,8.05
127,bethel,1,US,1607381098,63,30.11,41.37,-73.41,3.36
128,dillon,90,US,1607381098,100,44.13,34.42,-79.37,12.75
129,port alfred,23,ZA,1607381098,84,70.59,-33.59,26.89,23.73
130,dalby,87,AU,1607381098,45,73.99,-27.18,151.27,4.0
131,kaitangata,1,NZ,1607381098,68,63.0,-46.28,169.85,11.01
132,luderitz,15,NA,1607380802,94,58.87,-26.65,15.16,3.76
133,wladyslawowo,0,PL,1607381098,80,32.22,54.79,18.4,11.41
134,tuktoyaktuk,90,CA,1607381098,84,3.2,69.45,-133.04,4.7
135,batagay-alyta,88,RU,1607381098,83,-29.94,67.8,130.41,0.31
136,saskylakh,100,RU,1607381099,88,-14.87,71.92,114.08,3.58
137,lagoa,66,PT,1607381099,72,60.04,39.05,-27.98,13.27
138,khatanga,100,RU,1607381099,91,-8.43,71.97,102.5,7.31
139,north bend,40,US,1607381099,81,53.83,43.41,-124.22,6.93
140,aktau,0,KZ,1607381099,78,8.6,43.65,51.2,13.42
141,caravelas,17,BR,1607381097,80,75.81,-17.71,-39.25,8.55
142,leningradskiy,62,RU,1607381099,86,7.5,69.38,178.42,3.89
143,asfi,0,MA,1607381099,76,60.87,32.3,-9.24,0.49
144,karratha,76,AU,1607381099,60,83.19,-20.74,116.85,13.15
145,issia,17,CI,1607381099,92,73.31,6.49,-6.59,2.86
146,pecos,1,US,1607381099,16,64.4,31.42,-103.49,3.04
147,torbay,75,CA,1607381099,100,43.16,47.67,-52.73,8.05
148,makambako,37,TZ,1607381100,80,62.46,-8.85,34.82,9.66
149,grindavik,90,IS,1607381100,100,35.6,63.84,-22.43,9.17
150,bud,1,US,1607381100,72,33.96,39.45,-86.18,5.59
151,vao,51,NC,1607381100,87,77.67,-22.67,167.48,15.01
152,tazmalt,40,DZ,1607381100,54,59.0,36.39,4.4,8.05
153,east london,32,ZA,1607381100,77,71.58,-33.02,27.91,19.8
154,wanning,28,CN,1607381100,82,65.08,18.8,110.4,13.35
155,arraial do cabo,99,BR,1607381100,93,74.05,-22.97,-42.03,18.19
156,georgetown,20,MY,1607381100,83,77.63,5.41,100.34,3.36
157,pangnirtung,20,CA,1607381101,78,14.0,66.15,-65.71,2.24
158,kirksville,90,US,1607381101,80,34.83,40.19,-92.58,2.28
159,vallenar,0,CL,1607381101,38,73.26,-28.57,-70.76,6.87
160,balad,2,IQ,1607381101,46,51.15,34.02,44.15,1.88
161,kirakira,100,SB,1607381101,77,83.05,-10.45,161.92,5.79
162,quelimane,40,MZ,1607381102,94,77.0,-17.88,36.89,3.36
163,yar-sale,0,RU,1607381103,85,-3.21,66.83,70.83,4.72
164,coquimbo,75,CL,1607381103,77,59.0,-29.95,-71.34,6.93
165,cabo san lucas,20,MX,1607381103,40,74.64,22.89,-109.91,9.17
166,hambantota,75,LK,1607381104,100,73.4,6.12,81.12,4.7
167,puerto escondido,40,MX,1607381104,69,82.4,15.85,-97.07,4.7
168,san ignacio,75,BZ,1607381104,88,73.67,17.16,-89.07,13.87
169,grand-santi,99,GF,1607381104,79,77.23,4.25,-54.38,4.03
170,kahului,75,US,1607381105,62,76.06,20.89,-156.47,21.92
171,manokwari,100,ID,1607381105,76,81.72,-0.87,134.08,12.28
172,yen bai,100,VN,1607381106,71,62.2,21.7,104.87,0.56
173,avarua,13,CK,1607381107,66,84.2,-21.21,-159.78,6.93
174,faanui,22,PF,1607381107,78,80.47,-16.48,-151.75,11.34
175,aykhal,0,RU,1607381108,75,-18.4,66.0,111.5,2.24
176,galle,18,LK,1607381108,85,76.46,6.04,80.22,3.74
177,san cristobal,40,VE,1607381090,66,84.2,7.77,-72.22,5.82
178,touros,20,BR,1607381108,83,77.0,-5.2,-35.46,5.82
179,hamilton,90,US,1607381102,59,31.95,39.18,-84.53,5.82
180,vagamo,100,NO,1607381108,80,38.48,61.88,9.1,9.01
181,kavieng,78,PG,1607381109,68,85.39,-2.57,150.8,7.31
182,krasnoborsk,12,RU,1607381109,92,21.58,61.56,45.93,9.24
183,soe,100,ID,1607381069,92,71.62,-9.86,124.28,3.4
184,cherskiy,100,RU,1607381109,92,-4.36,68.75,161.3,7.47
185,roald,100,NO,1607381109,62,45.03,62.58,6.13,6.93
186,viedma,55,AR,1607381109,19,89.01,-40.81,-63.0,4.0
187,maningrida,86,AU,1607381109,62,87.12,-12.07,134.27,3.02
188,kachug,100,RU,1607381109,93,11.8,53.96,105.88,3.36
189,paragominas,100,BR,1607380988,94,74.64,-2.97,-47.48,3.06
190,wukari,3,NG,1607381110,26,80.92,7.85,9.78,0.72
191,jiuquan,100,CN,1607380873,86,17.37,39.74,98.52,2.64
192,broome,90,US,1607381110,73,25.14,42.25,-75.83,13.87
193,mulanay,100,PH,1607381111,85,80.15,13.52,122.4,7.07
194,bredasdorp,98,ZA,1607381111,93,66.2,-34.53,20.04,3.36
195,portobelo,100,PA,1607381111,99,73.94,9.55,-79.65,4.0
196,shingu,0,JP,1607381111,73,48.11,33.73,135.98,5.95
197,zhigansk,100,RU,1607380945,86,-26.39,66.77,123.37,2.55
198,aklavik,75,CA,1607381111,84,1.4,68.22,-135.01,2.24
199,fortuna,37,US,1607381111,57,63.12,40.6,-124.16,1.01
200,fez,75,MA,1607381001,71,55.4,34.04,-5.0,9.17
201,stolin,9,BY,1607381111,86,25.34,51.89,26.85,14.52
202,kamaishi,74,JP,1607381112,75,42.06,39.27,141.88,6.04
203,burnie,32,AU,1607381112,62,55.0,-41.07,145.92,8.99
204,padang,89,ID,1607381112,76,76.66,-0.95,100.35,3.29
205,hirara,75,JP,1607381112,83,73.4,24.8,125.28,18.34
206,oromocto,90,CA,1607380980,86,30.79,45.84,-66.48,5.82
207,barkhera,0,IN,1607381113,64,58.73,28.45,79.8,3.83
208,kyren,98,RU,1607381113,81,9.16,51.68,102.14,2.37
209,saldanha,0,ZA,1607381114,77,62.6,-33.01,17.94,1.12
210,shakiso,3,ET,1607381114,92,57.36,5.75,38.92,3.15
211,sao filipe,94,CV,1607381114,74,75.27,14.9,-24.5,12.08
212,lata,67,PT,1607380944,88,53.01,40.16,-8.33,7.0
213,arlit,17,NE,1607381114,20,78.58,18.74,7.39,10.42
214,xiongzhou,11,CN,1607380879,87,45.25,25.12,114.3,2.01
215,mayo,1,US,1607381115,55,35.8,38.89,-76.51,3.36
216,novi pazar,100,RS,1607381115,82,40.68,43.14,20.51,2.89
217,anadyr,40,RU,1607381115,85,12.2,64.75,177.48,6.71
218,pahalgam,100,IN,1607381116,78,37.31,34.03,75.33,4.43
219,codrington,96,AU,1607381116,63,55.89,-38.27,141.97,13.15
220,itapora,0,BR,1607381116,81,74.48,-22.08,-54.79,3.96
221,qui nhon,99,VN,1607380934,87,73.6,13.77,109.23,17.98
222,sur,1,OM,1607381116,66,74.23,22.57,59.53,3.8
223,shimoda,0,JP,1607381116,66,54.0,34.67,138.95,14.45
224,mount gambier,90,AU,1607381116,76,53.6,-37.83,140.77,6.93
225,ushtobe,76,KZ,1607380940,95,13.8,45.25,77.98,4.47
226,elizabeth city,90,US,1607381116,100,39.04,36.29,-76.25,18.34
227,ukiah,1,US,1607381116,14,72.27,39.15,-123.21,9.17
228,tieli,4,CN,1607381117,91,-0.51,46.95,128.05,5.79
229,the valley,20,AI,1607380853,78,78.53,18.22,-63.06,8.05
230,axim,1,GH,1607381117,84,78.96,4.87,-2.24,7.34
231,clovis,1,US,1607381117,36,61.86,36.83,-119.7,3.36
232,ugoofaaru,14,MV,1607381117,78,81.81,5.67,73.0,10.89
233,williams lake,90,CA,1607381117,60,42.8,52.14,-122.14,5.82
234,chipinge,88,ZW,1607381117,100,61.27,-20.19,32.62,4.5
235,port hedland,75,AU,1607381117,74,82.4,-20.32,118.57,11.41
236,shubarshi,0,KZ,1607381117,91,7.0,48.59,57.19,2.91
237,akureyri,0,IS,1607381118,73,24.8,65.68,-18.09,5.82
238,namibe,20,AO,1607380993,68,68.02,-15.2,12.15,7.25
239,tura,0,IN,1607381118,80,59.45,25.52,90.22,3.6
240,ejura,90,GH,1607381118,72,78.82,7.39,-1.36,7.05
241,ryazhsk,0,RU,1607381118,86,19.89,53.7,40.11,5.57
242,gazojak,0,TM,1607381118,80,18.66,41.19,61.4,7.23
243,mtimbira,0,TZ,1607381118,76,74.98,-8.78,36.35,2.82
244,umm lajj,0,SA,1607381118,32,73.72,25.02,37.27,5.3
245,haines junction,100,CA,1607381119,92,24.8,60.75,-137.51,2.98
246,gat,0,IL,1607381042,52,63.0,31.61,34.76,9.35
247,mount isa,84,AU,1607381011,21,80.6,-20.73,139.5,17.22
248,nanortalik,100,GL,1607381119,89,30.67,60.14,-45.24,7.74
249,klichka,0,RU,1607381119,92,-3.05,50.45,118.0,5.61
250,filingue,68,NE,1607381119,16,82.2,14.35,3.32,7.49
251,santiago,0,CL,1607380911,31,75.45,-33.46,-70.65,8.05
252,arenapolis,92,BR,1607381119,82,74.25,-14.45,-56.85,2.39
253,lakes entrance,33,AU,1607381119,58,59.52,-37.88,147.98,4.0
254,kralendijk,40,BQ,1607381119,78,82.4,12.15,-68.27,14.99
255,rock sound,98,BS,1607381120,81,78.19,24.9,-76.2,22.95
256,pouebo,13,NC,1607381120,62,83.59,-20.4,164.57,8.14
257,mankato,90,US,1607380861,100,30.87,44.16,-94.0,5.82
258,neuquen,0,AR,1607381120,25,96.8,-38.95,-68.06,5.82
259,ponta do sol,20,PT,1607381120,77,56.88,32.67,-17.1,3.36
260,salalah,0,OM,1607381120,73,73.4,17.02,54.09,2.24
261,canakkale,75,TR,1607381120,87,54.77,40.08,26.83,9.17
262,upernavik,100,GL,1607381120,96,17.71,72.79,-56.15,2.77
263,algiers,40,DZ,1607381077,59,62.6,36.75,3.04,16.11
264,kjopsvik,100,NO,1607381120,92,32.0,68.1,16.37,17.22
265,bhanvad,4,IN,1607381121,57,67.23,21.93,69.77,2.98
266,carnarvon,2,AU,1607381121,100,73.4,-24.87,113.63,5.26
267,duayaw nkwanta,61,GH,1607381121,91,72.52,7.17,-2.1,2.75
268,geraldton,0,AU,1607381121,16,86.0,-28.77,114.6,24.16
269,san ramon,1,US,1607380914,17,70.41,37.78,-121.98,13.87
270,puerto varas,40,CL,1607381121,67,62.6,-41.32,-72.99,9.17
271,provideniya,0,RU,1607381121,66,14.0,64.38,-173.3,4.74
272,san borja,20,BO,1607381121,77,76.64,-14.82,-66.85,1.01
273,almaznyy,20,RU,1607381121,78,15.8,48.04,40.05,20.13
274,nokha,0,IN,1607381121,30,64.44,27.6,73.42,8.75
275,emerald,40,AU,1607381122,62,86.0,-23.53,148.17,4.7
276,tevaitoa,64,PF,1607381122,76,81.23,-16.78,-151.5,14.0
277,netivot,0,IL,1607381122,52,63.0,31.42,34.59,1.01
278,coracao de jesus,75,BR,1607381122,88,73.4,-16.69,-44.37,3.36
279,biskamzha,100,RU,1607381122,91,8.42,53.45,89.53,8.88
280,chuy,15,UY,1607381122,84,62.38,-33.7,-53.46,9.46
281,karatuzskoye,100,RU,1607381122,93,11.97,53.61,92.87,7.74
282,obama,71,JP,1607381123,79,47.17,35.5,135.75,5.01
283,gimli,72,CA,1607381123,92,24.8,50.63,-96.99,2.24
284,monduli,5,TZ,1607381123,82,66.2,-3.3,36.45,11.41
285,santa vitoria do palmar,37,BR,1607380944,86,63.01,-33.52,-53.37,9.73
286,nombre de dios,40,MX,1607381123,20,63.72,23.85,-104.23,1.36
287,port lincoln,91,AU,1607381123,58,57.94,-34.73,135.87,6.96
288,assiniboia,91,CA,1607380879,74,35.6,49.63,-105.98,10.29
289,itarema,8,BR,1607381123,76,80.51,-2.92,-39.92,16.37
290,piatra neamt,98,RO,1607381123,48,27.0,46.92,26.33,1.74
291,kochubey,98,RU,1607381124,76,38.17,44.39,46.58,19.95
292,muncar,91,ID,1607380872,83,78.49,-8.43,114.33,1.19
293,sergeyevka,100,KZ,1607381124,96,16.39,53.88,67.42,13.87
294,huntsville,40,US,1607381080,56,38.34,34.73,-86.59,9.17
295,beringovskiy,7,RU,1607381124,86,12.74,63.05,179.32,4.18
296,rio gallegos,75,AR,1607381124,52,66.2,-51.62,-69.22,13.87
297,guerrero negro,0,MX,1607381124,19,75.76,27.98,-114.06,7.67
298,cidreira,64,BR,1607381124,85,70.23,-30.18,-50.21,20.0
299,ilo,85,PE,1607381125,76,66.33,-17.64,-71.34,1.88
300,lubango,28,AO,1607381125,52,61.7,-14.92,13.49,3.96
301,chokurdakh,100,RU,1607381125,91,-12.17,70.63,147.92,5.97
302,bonthe,1,SL,1607381125,83,78.42,7.53,-12.51,5.55
303,hami,79,CN,1607381125,83,18.37,42.8,93.45,1.63
304,poltavka,99,RU,1607381125,96,14.0,54.37,71.76,13.62
305,narsaq,86,GL,1607381126,53,21.2,60.92,-46.05,10.2
306,ngunguru,66,NZ,1607381126,75,78.01,-35.62,174.5,10.0
307,ivnya,0,RU,1607381126,85,14.0,51.06,36.13,17.9
308,ilulissat,100,GL,1607381088,79,23.0,69.22,-51.1,13.87
309,kisangani,1,CD,1607381126,91,71.1,0.52,25.2,1.74
310,bubaque,9,GW,1607381126,69,81.1,11.28,-15.83,9.22
311,yarmouth,1,US,1607381075,74,30.51,41.71,-70.23,2.91
312,tautira,75,PF,1607381126,70,84.2,-17.73,-149.15,5.82
313,qaqortoq,84,GL,1607381127,53,21.2,60.72,-46.03,10.76
314,oranjemund,0,NA,1607381127,91,62.73,-28.55,16.43,6.11
315,cocula,90,MX,1607381127,37,68.0,20.37,-103.82,8.05
316,galesong,20,ID,1607381127,94,75.2,-5.32,119.37,2.24
317,te anau,8,NZ,1607381127,51,60.21,-45.42,167.72,9.26
318,kondinskoye,100,RU,1607381127,98,21.2,59.65,67.41,6.64
319,chandausi,0,IN,1607381127,43,59.5,28.45,78.77,2.06
320,kutum,14,SD,1607381127,28,63.79,14.2,24.67,8.46
321,pimentel,0,PE,1607381127,68,71.6,-6.84,-79.93,23.04
322,necochea,0,AR,1607380890,32,80.01,-38.55,-58.74,13.8
323,voyvozh,100,RU,1607381127,99,26.24,62.89,54.96,7.54
324,nikolskoye,0,RU,1607381128,67,23.67,59.7,30.79,4.47
325,saint-augustin,100,CA,1607381128,97,32.29,51.23,-58.65,14.32
326,isangel,75,VU,1607381128,74,84.2,-19.55,169.27,5.82
327,machali,0,CL,1607381060,36,78.8,-34.18,-70.67,6.11
328,tuatapere,5,NZ,1607381129,60,66.99,-46.13,167.68,8.01
329,krasnoselkup,41,RU,1607381129,88,-11.38,65.7,82.47,18.14
330,yabrud,8,SY,1607381129,93,41.0,33.97,36.66,7.61
331,wilmington,90,US,1607381129,87,49.03,34.23,-77.94,6.93
332,saint-joseph,0,RE,1607381130,78,70.03,-21.37,55.62,4.7
333,clyde,100,US,1607380878,76,33.35,41.3,-82.98,7.02
334,road town,20,VG,1607381130,74,80.24,18.42,-64.62,8.05
335,kibondo,94,TZ,1607381130,96,60.28,-3.59,30.72,2.84
336,sobolevo,0,RU,1607381130,90,19.72,54.43,31.9,10.94
337,pisco,75,PE,1607381130,77,68.59,-13.7,-76.22,5.82
338,sao gabriel da cachoeira,98,BR,1607380871,94,76.26,-0.13,-67.09,1.1
339,taree,20,AU,1607381130,27,72.39,-31.9,152.47,14.99
340,maldonado,0,UY,1607381130,56,68.0,-34.67,-54.92,16.11
341,tromso,0,NO,1607381123,79,25.74,69.65,18.96,5.82
342,linqiong,4,CN,1607381131,100,41.86,30.42,103.46,1.14
343,kalmunai,12,LK,1607381131,85,76.91,7.42,81.82,1.97
344,adoni,0,IN,1607381131,73,68.4,15.63,77.28,6.6
345,yaan,11,NG,1607381131,50,82.72,7.38,8.57,8.16
346,lorengau,100,PG,1607381131,66,85.66,-2.02,147.27,5.82
347,kruisfontein,18,ZA,1607381132,92,68.0,-34.0,24.73,1.99
348,zunyi,69,CN,1607381132,91,39.16,27.69,106.91,1.97
349,oranjestad,20,AW,1607381132,78,82.4,12.52,-70.03,17.22
350,chapais,1,CA,1607381132,85,10.4,49.78,-74.85,6.93
351,swanzey,90,US,1607381132,73,25.83,42.87,-72.28,12.75
352,darhan,0,MN,1607381132,85,0.39,49.49,105.92,6.04
353,sistranda,0,NO,1607381132,65,44.6,63.73,8.83,35.57
354,kodoli,0,IN,1607381132,73,65.17,16.88,74.2,7.31
355,salumbar,0,IN,1607381132,38,65.21,24.13,74.05,3.74
356,wenling,98,CN,1607381132,79,57.0,28.37,121.36,11.12
357,urucara,100,BR,1607381132,88,77.34,-2.54,-57.76,2.93
358,nioro,65,GM,1607381133,34,76.21,13.35,-15.75,6.08
359,hokitika,100,NZ,1607381133,92,61.56,-42.72,170.97,7.87
360,ciudad bolivar,100,VE,1607381133,68,81.86,8.12,-63.55,13.2
361,sola,12,VU,1607381133,77,81.72,-13.88,167.55,4.59
362,olafsvik,100,IS,1607381134,94,34.9,64.89,-23.71,6.02
363,mackay,75,AU,1607380904,70,84.2,-21.15,149.2,12.75
364,luanda,40,AO,1607381134,83,77.0,-8.84,13.23,8.05
365,kalulushi,100,ZM,1607381134,96,63.48,-12.84,28.09,2.73
366,walvis bay,0,NA,1607381134,89,62.01,-22.96,14.51,8.28
367,quatre cocos,20,MU,1607381134,88,75.09,-20.21,57.76,5.7
368,labuhan,100,ID,1607381134,83,80.49,-6.88,112.21,12.01
369,foumban,55,CM,1607381135,49,67.14,5.73,10.9,2.95
370,balykshi,0,KZ,1607381135,77,6.8,47.07,51.87,4.47
371,ambon,93,ID,1607381135,87,87.01,-3.7,128.18,1.99
372,naze,75,JP,1607381135,68,66.2,28.37,129.48,16.11
373,bushehr,12,IR,1607381135,62,64.11,28.97,50.84,15.93
374,mbekenyera,10,TZ,1607381135,93,70.95,-10.0,38.98,3.58
375,kokkola,40,FI,1607381135,86,29.66,63.84,23.13,9.17
376,biak,100,ID,1607381135,80,80.08,-0.91,122.88,0.85
377,la plata,57,AR,1607381136,70,69.44,-34.92,-57.95,4.0
378,asau,99,RO,1607381136,23,26.01,46.43,26.4,2.3
379,port-gentil,75,GA,1607381136,100,77.0,-0.72,8.78,3.36
380,alto araguaia,89,BR,1607381136,80,72.99,-17.31,-53.22,4.27
381,general salgado,100,BR,1607381136,85,73.99,-20.65,-50.36,3.22
382,marfino,0,RU,1607381136,78,15.93,55.7,37.38,4.47
383,puerto madryn,100,AR,1607380847,24,82.78,-42.77,-65.04,27.74
384,moron,42,AR,1607381136,53,72.88,-34.65,-58.62,7.0
385,marienburg,86,PL,1607381136,100,28.65,54.04,19.03,11.77
386,hobyo,91,SO,1607380854,77,78.24,5.35,48.53,13.94
387,itaituba,100,BR,1607381137,95,76.37,-4.28,-55.98,1.99
388,roebourne,81,AU,1607381137,64,83.12,-20.78,117.13,15.3
389,mapiripan,93,CO,1607381137,86,77.41,2.89,-72.13,2.8
390,piacabucu,30,BR,1607381137,77,76.62,-10.41,-36.43,9.86
391,katsuura,20,JP,1607381137,81,49.51,35.13,140.3,5.82
392,biltine,4,TD,1607381137,19,75.58,14.53,20.92,12.88
393,khani,0,GE,1607381137,49,46.4,41.96,42.96,28.86
394,padilla,75,CO,1607381137,65,75.25,3.22,-76.31,6.93
395,belyy yar,0,RU,1607381138,67,19.4,53.6,91.39,13.42
396,bandarbeyla,12,SO,1607381138,75,75.06,9.49,50.81,15.37
397,mormugao,20,IN,1607381138,69,80.6,15.4,73.8,6.93
398,killybegs,53,IE,1607381138,98,33.01,54.63,-8.45,3.0
399,myitkyina,0,MM,1607381138,80,55.04,25.38,97.4,2.21
400,wiang sa,20,TH,1607381138,94,74.95,8.64,99.37,3.36
401,bairiki,75,KI,1607381139,70,84.2,1.33,172.98,10.29
402,muisne,75,EC,1607381139,74,82.4,0.6,-80.03,10.29
403,vestmannaeyjar,100,IS,1607381139,82,39.58,63.44,-20.27,27.67
404,pointe michel,40,DM,1607381139,94,73.4,15.25,-61.38,2.24
405,rawah,70,IQ,1607381139,36,56.71,34.48,41.91,6.46
406,lavrentiya,0,RU,1607381139,88,15.85,65.58,-171.0,9.64
407,tilichiki,99,RU,1607381139,97,9.14,60.47,166.1,4.23
408,gamba,100,GA,1607381139,91,76.24,-2.65,10.0,10.8
409,saint-ambroise,68,CA,1607381139,79,23.95,48.55,-71.33,6.93
410,tateyama,0,JP,1607381140,66,51.01,34.98,139.87,3.0
411,yumen,100,CN,1607381140,93,18.93,40.28,97.2,15.01
412,los llanos de aridane,40,ES,1607381140,72,59.95,28.66,-17.92,8.05
413,san rafael,0,AR,1607381140,23,86.13,-34.62,-68.33,18.32
414,bokajan,0,IN,1607381140,91,55.99,26.02,93.78,0.36
415,camalu,100,MX,1607381140,8,70.0,30.85,-116.07,4.0
416,micheweni,0,TZ,1607381140,78,79.92,-4.97,39.83,4.34
417,mahebourg,20,MU,1607381140,88,75.2,-20.41,57.7,5.21
418,fare,50,PF,1607381140,75,81.3,-16.7,-151.02,13.73
419,passagem franca,16,BR,1607381140,68,78.06,-6.18,-43.78,1.16
420,salinas,1,US,1607381141,20,72.28,36.68,-121.66,3.36
421,galich,0,RU,1607381141,93,15.04,58.38,42.35,5.1
422,sao jose da coroa grande,20,BR,1607381141,80,77.16,-8.9,-35.15,8.48
423,ishim,100,RU,1607380854,97,19.83,56.11,69.49,10.02
424,fort frances,90,CA,1607381141,92,28.31,48.6,-93.4,4.7
425,chitral,100,PK,1607381141,65,41.25,35.85,71.79,2.68
426,jalu,0,LY,1607381141,52,52.68,29.03,21.55,7.27
427,sembe,28,CG,1607381141,76,73.42,1.65,14.58,3.11
428,ancud,0,CL,1607381141,67,52.12,-41.87,-73.82,17.22
429,iba,75,PH,1607381142,94,77.0,15.37,120.03,6.93
430,nara,0,JP,1607380927,75,46.13,34.69,135.8,3.36
431,sevierville,90,US,1607381000,74,36.25,35.87,-83.56,10.29
432,boddam,100,GB,1607381142,93,42.26,57.47,-1.78,13.87
433,katobu,99,ID,1607381142,86,79.63,-4.94,122.53,2.13
434,uporovo,97,RU,1607381142,98,19.96,56.31,66.27,7.27
435,sao joao da barra,94,BR,1607381142,86,75.58,-21.64,-41.05,20.36
436,north platte,1,US,1607381143,14,62.6,41.12,-100.77,14.99
437,male,75,MV,1607381143,88,82.4,4.17,73.51,5.82
438,sayyan,0,YE,1607381143,68,48.58,15.17,44.32,3.85
439,kaka,99,TM,1607381143,83,33.28,37.35,59.61,4.79
440,fayaoue,83,NC,1607381143,83,79.57,-20.65,166.53,13.76
441,bousso,89,TD,1607381143,20,75.74,10.48,16.71,4.9
442,orlik,66,RU,1607381143,81,-5.57,52.52,99.83,3.29
443,antalaha,47,MG,1607381143,87,72.37,-14.9,50.28,4.45
444,vagur,100,FO,1607381143,72,43.88,61.47,-6.81,31.88
445,acucena,81,BR,1607381144,95,70.66,-19.07,-42.55,3.94
446,alfredo chaves,20,BR,1607381144,78,78.35,-20.64,-40.75,16.11
447,nerang,100,AU,1607381144,84,77.38,-27.98,153.33,4.0
448,tiznit,0,MA,1607381145,66,53.76,29.58,-9.5,2.91
449,meulaboh,99,ID,1607381145,84,75.97,4.14,96.13,3.51
450,el higo,35,MX,1607381145,49,69.08,21.77,-98.47,4.14
451,bhag,10,PK,1607381145,36,63.9,29.04,67.82,3.85
452,mutis,100,CO,1607381145,83,79.66,6.23,-77.4,3.44
453,tiksi,99,RU,1607381145,88,-19.61,71.69,128.87,2.21
454,buala,100,SB,1607381145,72,84.31,-8.14,159.59,3.47
455,port macquarie,54,AU,1607381145,30,78.46,-31.43,152.92,5.01
456,bafq,25,IR,1607381145,70,45.81,31.61,55.41,6.73
457,high level,40,CA,1607380882,86,41.0,58.52,-117.14,4.7
458,tha mai,8,TH,1607381145,10,71.01,12.62,102.0,7.63
459,seddon,90,AU,1607381145,58,56.84,-37.81,144.89,17.22
460,mahon,0,ES,1607380969,67,59.0,39.89,4.27,16.11
461,svirsk,100,RU,1607381146,89,7.83,53.09,103.33,4.14
462,asaka,0,JP,1607381146,23,50.68,35.8,139.6,4.12
463,betong,99,TH,1607381146,94,69.57,5.77,101.07,2.13
464,bambanglipuro,92,ID,1607381146,84,76.69,-7.95,110.28,5.44
465,kerema,100,PG,1607381146,73,80.98,-7.96,145.78,1.95
466,taltal,22,CL,1607381146,69,64.36,-25.4,-70.48,6.06
467,baherden,97,TM,1607381146,76,34.38,38.44,57.43,6.53
468,laguna,1,US,1607381146,20,72.55,38.42,-121.42,11.41
469,vila velha,20,BR,1607381147,78,78.39,-20.33,-40.29,16.11
470,lodja,94,CD,1607381147,96,70.0,-3.48,23.43,0.72
471,kosa,92,RU,1607381147,96,18.91,59.94,55.0,6.96
472,shitanjing,41,CN,1607381147,92,13.21,39.23,106.34,2.8
473,sao gotardo,68,BR,1607380973,100,72.0,-19.31,-46.05,4.38
474,sisimiut,99,GL,1607381147,90,24.31,66.94,-53.67,14.85
475,snasa,100,NO,1607381147,83,36.39,64.25,12.38,5.91
476,salisbury,90,GB,1607381040,100,31.89,51.07,-1.8,6.93
477,hovd,33,MN,1607381147,84,-0.02,48.01,91.64,0.94
478,state college,76,US,1607380941,59,29.88,40.79,-77.86,3.0
479,damietta,0,EG,1607381148,68,64.4,31.42,31.81,10.29
480,skeldon,70,GY,1607381148,91,77.02,5.88,-57.13,7.94
481,ostrovnoy,100,RU,1607381148,92,35.08,68.05,39.51,11.27
482,whitianga,21,NZ,1607381130,79,75.99,-36.83,175.7,8.99
483,tazovskiy,23,RU,1607381148,90,-9.29,67.47,78.7,13.87
484,taylor,1,US,1607381148,20,64.09,32.3,-99.83,6.93
485,bemidji,90,US,1607381148,100,29.46,47.47,-94.88,4.7
486,dmitriyevskoye,86,RU,1607381148,93,23.88,45.81,41.9,19.86
487,pilar,0,BR,1607381149,83,73.4,-9.6,-35.96,5.82
488,villa carlos paz,0,AR,1607381149,34,80.08,-31.42,-64.5,14.99
489,lamu,75,KE,1607381149,83,80.6,-2.27,40.9,6.87
490,houma,1,US,1607381009,44,60.8,29.6,-90.72,6.93
491,camacha,40,PT,1607381149,82,60.8,33.08,-16.33,9.17
492,christchurch,100,NZ,1607381149,36,78.8,-43.53,172.63,5.82
493,gravdal,100,NO,1607381149,81,36.81,68.12,13.5,13.02
494,kuching,20,MY,1607380989,94,78.42,1.55,110.33,3.36
495,barentu,2,ER,1607381149,74,60.8,15.11,37.59,4.03
496,longyearbyen,75,SJ,1607381149,73,24.8,78.22,15.64,14.99
497,san vicente,1,AR,1607381149,63,69.12,-26.62,-54.13,3.47
498,samana,20,DO,1607381149,88,80.6,19.21,-69.34,5.99
499,dickinson,1,US,1607380860,31,63.1,29.46,-95.05,13.87
500,angoche,76,MZ,1607381150,84,79.47,-16.23,39.91,6.11
501,kashi,54,CN,1607381150,85,23.0,39.45,75.98,4.47
502,adrar,86,MR,1607381150,32,60.98,20.5,-10.07,9.01
503,gushikawa,1,JP,1607381150,82,66.72,26.35,127.87,10.29
504,mercedes,0,AR,1607381150,39,75.2,-34.65,-59.43,5.99
505,mahina,75,PF,1607381150,70,84.2,-17.51,-149.49,5.82
506,avera,40,US,1607381150,61,50.34,33.19,-82.53,16.11
507,middelkerke,75,BE,1607381150,88,33.85,51.16,2.84,5.82
508,gobabis,23,NA,1607381150,61,69.91,-22.45,18.97,6.26
509,puerto del rosario,75,ES,1607381150,72,66.2,28.5,-13.86,13.87
510,salamiyah,35,SY,1607381151,72,54.28,35.01,37.05,9.13
511,coracora,99,PE,1607381151,75,51.39,-15.03,-73.78,7.65
512,warburg,96,DE,1607381151,93,35.33,51.5,9.17,2.39
513,vestmanna,87,FO,1607381151,80,39.2,62.16,-7.17,11.41
514,enid,1,US,1607381045,41,60.8,36.4,-97.88,8.05
515,patea,99,NZ,1607381151,94,66.0,-39.76,174.48,11.01
516,poum,26,NC,1607381152,78,80.26,-20.23,164.02,14.99
517,klyuchevskiy,60,RU,1607381152,93,-1.32,53.53,119.45,3.56
518,ambovombe,92,MG,1607381152,76,68.31,-25.17,46.08,16.44
519,nishihara,75,JP,1607381152,88,66.83,26.18,127.76,10.29
520,vizinga,7,RU,1607381152,94,19.44,61.07,50.1,8.9
521,boditi,0,ET,1607381152,74,57.24,6.97,37.87,5.61
522,tual,65,ID,1607381152,71,83.84,-5.67,132.75,0.47
523,iiyama,99,JP,1607381152,82,44.01,36.85,138.37,1.99
524,tashigang,2,BT,1607381152,63,47.64,27.33,91.55,4.25
525,leninskoye,100,KZ,1607381152,86,24.66,41.76,69.39,2.24
526,general pico,0,AR,1607381152,17,83.59,-35.66,-63.76,10.54
527,grand gaube,12,MU,1607381153,83,75.0,-20.01,57.66,4.0
528,cap malheureux,9,MU,1607381153,83,75.0,-19.98,57.61,4.0
529,panambi,4,BR,1607381153,78,68.0,-28.29,-53.5,7.49
530,amazar,73,RU,1607381153,90,1.26,53.86,120.88,3.15
531,nisia floresta,75,BR,1607381153,83,77.0,-6.09,-35.21,16.11
532,el carmen,100,CO,1607381153,91,71.17,8.51,-73.45,2.48
533,moyale,1,KE,1607381153,81,68.27,3.52,39.06,2.64
534,bouillante,0,GP,1607381153,78,77.0,16.13,-61.77,4.7
535,kumano,75,JP,1607381153,75,46.4,34.34,132.59,3.36
536,batemans bay,0,AU,1607380959,51,59.68,-35.72,150.18,3.0
537,vysokogornyy,100,RU,1607381154,92,1.96,50.12,139.15,7.36
538,raga,0,SS,1607381154,22,71.55,8.46,25.68,4.18
539,rovaniemi,90,FI,1607381154,95,32.0,66.5,25.72,6.93
540,charters towers,72,AU,1607381154,60,84.09,-20.1,146.27,5.91
541,marawi,46,PH,1607381154,90,75.0,8.0,124.29,5.99
542,bengkulu,70,ID,1607380933,87,73.94,-3.8,102.27,5.08
543,misratah,0,LY,1607381154,38,57.22,32.38,15.09,11.74
544,birjand,75,IR,1607381154,86,41.0,32.87,59.22,6.93
545,yerofey pavlovich,81,RU,1607381154,90,-1.08,53.97,121.97,2.64
546,dali,0,CN,1607381155,79,39.97,25.7,100.18,0.58
